{
  "type" : "FeatureCollection",
  "features" : [{"type":"Feature","id":1,"geometry":{"type":"Point","coordinates":[29.439737000362356,-2.4499220003999653]},"properties":{"OBJECTID_1":1,"OBJECTID":2162,"Prov_Kin":"Amajyepfo","Prov_Eng":"Southern Province","District":"Nyamagabe","Sector":"Buruhukiro","Cell":"Bushigishigi","Village":"Bushigishigi","Name":"EP Bushigishigi","School_ID":"250104","Highest_Ed":"Primary","Coordinate":"Yes","Latitude":-2.4499219999999999,"Longitude":29.439737000000001}},{"type":"Feature","id":2,"geometry":{"type":"Point","coordinates":[29.442853000165883,-2.4290179995809922]},"properties":{"OBJECTID_1":2,"OBJECTID":2163,"Prov_Kin":"Amajyepfo","Prov_Eng":"Southern Province","District":"Nyamagabe","Sector":"Buruhukiro","Cell":"Byimana","Village":"Gakangaga","Name":"EP Bishyiga","School_ID":"250101","Highest_Ed":"Primary","Coordinate":"Yes","Latitude":-2.4290180000000001,"Longitude":29.442852999999999}},{"type":"Feature","id":3,"geometry":{"type":"Point","coordinates":[29.454111000422358,-2.4357499997626064]},"properties":{"OBJECTID_1":3,"OBJECTID":2164,"Prov_Kin":"Amajyepfo","Prov_Eng":"Southern Province","District":"Nyamagabe","Sector":"Buruhukiro","Cell":"Byimana","Village":"Rukeri","Name":"Rugogwe","School_ID":"250107","Highest_Ed":"Secondary O' Level","Coordinate":"Yes","Latitude":-2.4357500000000001,"Longitude":29.454111000000001}},{"type":"Feature","id":4,"geometry":{"type":"Point","coordinates":[29.445230000064498,-2.429897999692912]},"properties":{"OBJECTID_1":4,"OBJECTID":2165,"Prov_Kin":"Amajyepfo","Prov_Eng":"Southern Province","District":"Nyamagabe","Sector":"Buruhukiro","Cell":"Byimana","Village":"Gakangaga","Name":"ES Bishyiga","School_ID":"250103","Highest_Ed":"Secondary A' Level","Coordinate":"Yes","Latitude":-2.4298980000000001,"Longitude":29.445229999999999}},{"type":"Feature","id":5,"geometry":{"type":"Point","coordinates":[29.427906999808272,-2.4010399998960565]},"properties":{"OBJECTID_1":5,"OBJECTID":2166,"Prov_Kin":"Amajyepfo","Prov_Eng":"Southern Province","District":"Nyamagabe","Sector":"Buruhukiro","Cell":"Gifurwe","Village":"Bitaba","Name":"EP Gifurwe","School_ID":"250102","Highest_Ed":"Primary","Coordinate":"Yes","Latitude":-2.4010400000000001,"Longitude":29.427907000000001}},{"type":"Feature","id":6,"geometry":{"type":"Point","coordinates":[29.411599999640316,-2.4243849999677423]},"properties":{"OBJECTID_1":6,"OBJECTID":2167,"Prov_Kin":"Amajyepfo","Prov_Eng":"Southern Province","District":"Nyamagabe","Sector":"Buruhukiro","Cell":"Gifurwe","Village":"Nganzo","Name":"Kibyagira","School_ID":"250106","Highest_Ed":"Secondary A' Level","Coordinate":"Yes","Latitude":-2.424385,"Longitude":29.4116}},{"type":"Feature","id":7,"geometry":{"type":"Point","coordinates":[29.415967999623547,-2.4677719997779377]},"properties":{"OBJECTID_1":7,"OBJECTID":2168,"Prov_Kin":"Amajyepfo","Prov_Eng":"Southern Province","District":"Nyamagabe","Sector":"Buruhukiro","Cell":"Kizimyamuriro","Village":"Gishwati","Name":"GS Kizimyamuriro","School_ID":"250105","Highest_Ed":"Secondary O' Level","Coordinate":"Yes","Latitude":-2.4677720000000001,"Longitude":29.415967999999999}},{"type":"Feature","id":8,"geometry":{"type":"Point","coordinates":[29.605197999887821,-2.4074420001481371]},"properties":{"OBJECTID_1":8,"OBJECTID":2169,"Prov_Kin":"Amajyepfo","Prov_Eng":"Southern Province","District":"Nyamagabe","Sector":"Cyanika","Cell":"Gitega","Village":"Gasharu","Name":"GS Rugogwe-Cyanika","School_ID":"250204","Highest_Ed":"Secondary O' Level","Coordinate":"Yes","Latitude":-2.4074420000000001,"Longitude":29.605198000000001}},{"type":"Feature","id":9,"geometry":{"type":"Point","coordinates":[29.594262000091305,-2.4611199996882078]},"properties":{"OBJECTID_1":9,"OBJECTID":2170,"Prov_Kin":"Amajyepfo","Prov_Eng":"Southern Province","District":"Nyamagabe","Sector":"Cyanika","Cell":"Karama","Village":"Nyanza","Name":"GS Saint Nicolas Cyanika","School_ID":"250205","Highest_Ed":"Secondary A' Level","Coordinate":"Yes","Latitude":-2.4611200000000002,"Longitude":29.594262000000001}},{"type":"Feature","id":10,"geometry":{"type":"Point","coordinates":[29.602596999551963,-2.439821999585547]},"properties":{"OBJECTID_1":10,"OBJECTID":2171,"Prov_Kin":"Amajyepfo","Prov_Eng":"Southern Province","District":"Nyamagabe","Sector":"Cyanika","Cell":"Karama","Village":"Nyanza","Name":"Gsndp Cyanika","School_ID":"250206","Highest_Ed":"Secondary A' Level","Coordinate":"Yes","Latitude":-2.4398219999999999,"Longitude":29.602596999999999}},{"type":"Feature","id":11,"geometry":{"type":"Point","coordinates":[29.634438000213606,-2.4528220001351428]},"properties":{"OBJECTID_1":11,"OBJECTID":2172,"Prov_Kin":"Amajyepfo","Prov_Eng":"Southern Province","District":"Nyamagabe","Sector":"Cyanika","Cell":"Kiyumba","Village":"Kagarama","Name":"Kiyumba Primary School","School_ID":"250207","Highest_Ed":"Primary","Coordinate":"Yes","Latitude":-2.4528219999999998,"Longitude":29.634437999999999}},{"type":"Feature","id":12,"geometry":{"type":"Point","coordinates":[29.625277999580078,-2.4220559995846429]},"properties":{"OBJECTID_1":12,"OBJECTID":2173,"Prov_Kin":"Amajyepfo","Prov_Eng":"Southern Province","District":"Nyamagabe","Sector":"Cyanika","Cell":"Ngoma","Village":"Kinga","Name":"GS Ngoma","School_ID":"250203","Highest_Ed":"Secondary O' Level","Coordinate":"Yes","Latitude":-2.422056,"Longitude":29.625278000000002}},{"type":"Feature","id":13,"geometry":{"type":"Point","coordinates":[29.625442999994505,-2.4219770004381758]},"properties":{"OBJECTID_1":13,"OBJECTID":2174,"Prov_Kin":"Amajyepfo","Prov_Eng":"Southern Province","District":"Nyamagabe","Sector":"Cyanika","Cell":"Nyanza","Village":"Buhiga","Name":"Ecole Primaire Mugombwa","School_ID":"250201","Highest_Ed":"Primary","Coordinate":"Yes","Latitude":-2.421977,"Longitude":29.625443000000001}},{"type":"Feature","id":14,"geometry":{"type":"Point","coordinates":[29.648486999675356,-2.4197219998703758]},"properties":{"OBJECTID_1":14,"OBJECTID":2175,"Prov_Kin":"Amajyepfo","Prov_Eng":"Southern Province","District":"Nyamagabe","Sector":"Cyanika","Cell":"Nyanzoga","Village":"Mbeho","Name":"Ecole Primaire Nyanzoga","School_ID":"250202","Highest_Ed":"Primary","Coordinate":"Yes","Latitude":-2.4197220000000002,"Longitude":29.648486999999999}},{"type":"Feature","id":15,"geometry":{"type":"Point","coordinates":[29.531756999985589,-2.4845570004051751]},"properties":{"OBJECTID_1":15,"OBJECTID":2176,"Prov_Kin":"Amajyepfo","Prov_Eng":"Southern Province","District":"Nyamagabe","Sector":"Gasaka","Cell":"Kigeme","Village":"Munombe","Name":"EP Gasaka","School_ID":"250304","Highest_Ed":"Primary","Coordinate":"Yes","Latitude":-2.4845570000000001,"Longitude":29.531756999999999}},{"type":"Feature","id":16,"geometry":{"type":"Point","coordinates":[29.525563000332227,-2.4853079999641636]},"properties":{"OBJECTID_1":16,"OBJECTID":2177,"Prov_Kin":"Amajyepfo","Prov_Eng":"Southern Province","District":"Nyamagabe","Sector":"Gasaka","Cell":"Kigeme","Village":"Gakoma","Name":"GS Kigeme B","School_ID":"250308","Highest_Ed":"Secondary O' Level","Coordinate":"Yes","Latitude":-2.4853079999999999,"Longitude":29.525562999999998}},{"type":"Feature","id":17,"geometry":{"type":"Point","coordinates":[29.527883000300278,-2.4812380002334748]},"properties":{"OBJECTID_1":17,"OBJECTID":2178,"Prov_Kin":"Amajyepfo","Prov_Eng":"Southern Province","District":"Nyamagabe","Sector":"Gasaka","Cell":"Kigeme","Village":"Munombe","Name":"GS Kigeme A","School_ID":"250312","Highest_Ed":"Secondary A' Level","Coordinate":"Yes","Latitude":-2.4812379999999998,"Longitude":29.527882999999999}},{"type":"Feature","id":18,"geometry":{"type":"Point","coordinates":[29.586941999773501,-2.4768229998815059]},"properties":{"OBJECTID_1":18,"OBJECTID":2179,"Prov_Kin":"Amajyepfo","Prov_Eng":"Southern Province","District":"Nyamagabe","Sector":"Gasaka","Cell":"Ngiryi","Village":"Sumba","Name":"EP Sumba","School_ID":"250306","Highest_Ed":"Primary","Coordinate":"Yes","Latitude":-2.476823,"Longitude":29.586942000000001}},{"type":"Feature","id":19,"geometry":{"type":"Point","coordinates":[29.585071999872923,-2.4672449997568719]},"properties":{"OBJECTID_1":19,"OBJECTID":2180,"Prov_Kin":"Amajyepfo","Prov_Eng":"Southern Province","District":"Nyamagabe","Sector":"Gasaka","Cell":"Ngiryi","Village":"Munyege","Name":"ES Sumba","School_ID":"250303","Highest_Ed":"Secondary A' Level","Coordinate":"Yes","Latitude":-2.4672450000000001,"Longitude":29.585072}},{"type":"Feature","id":20,"geometry":{"type":"Point","coordinates":[29.588972999904058,-2.470717999835756]},"properties":{"OBJECTID_1":20,"OBJECTID":2181,"Prov_Kin":"Amajyepfo","Prov_Eng":"Southern Province","District":"Nyamagabe","Sector":"Gasaka","Cell":"Ngiryi","Village":"Sumba","Name":"GS Aceper","School_ID":"250309","Highest_Ed":"Secondary A' Level","Coordinate":"Yes","Latitude":-2.4707180000000002,"Longitude":29.588972999999999}},{"type":"Feature","id":21,"geometry":{"type":"Point","coordinates":[29.569784999977799,-2.4676870003547151]},"properties":{"OBJECTID_1":21,"OBJECTID":2182,"Prov_Kin":"Amajyepfo","Prov_Eng":"Southern Province","District":"Nyamagabe","Sector":"Gasaka","Cell":"Nyamugali","Village":"Nyarusange","Name":"Sos Gikongoro","School_ID":"250314","Highest_Ed":"Primary","Coordinate":"Yes","Latitude":-2.4676870000000002,"Longitude":29.569785}},{"type":"Feature","id":22,"geometry":{"type":"Point","coordinates":[29.583482000294111,-2.4584299997446237]},"properties":{"OBJECTID_1":22,"OBJECTID":2183,"Prov_Kin":"Amajyepfo","Prov_Eng":"Southern Province","District":"Nyamagabe","Sector":"Gasaka","Cell":"Nyamugali","Village":"Nyamugali","Name":"Esc Nyamagabe","School_ID":"250307","Highest_Ed":"Secondary A' Level","Coordinate":"Yes","Latitude":-2.4584299999999999,"Longitude":29.583482}},{"type":"Feature","id":23,"geometry":{"type":"Point","coordinates":[29.567315000287067,-2.4697029997935829]},"properties":{"OBJECTID_1":23,"OBJECTID":2184,"Prov_Kin":"Amajyepfo","Prov_Eng":"Southern Province","District":"Nyamagabe","Sector":"Gasaka","Cell":"Nyamugali","Village":"Nyarusange","Name":"GS Gikongoro","School_ID":"250311","Highest_Ed":"Secondary A' Level","Coordinate":"Yes","Latitude":-2.469703,"Longitude":29.567315000000001}},{"type":"Feature","id":24,"geometry":{"type":"Point","coordinates":[29.577661999901409,-2.4567400000508997]},"properties":{"OBJECTID_1":24,"OBJECTID":2185,"Prov_Kin":"Amajyepfo","Prov_Eng":"Southern Province","District":"Nyamagabe","Sector":"Gasaka","Cell":"Nyamugali","Village":"Kigarama","Name":"GS Mulico","School_ID":"250313","Highest_Ed":"Secondary A' Level","Coordinate":"Yes","Latitude":-2.4567399999999999,"Longitude":29.577662}},{"type":"Feature","id":25,"geometry":{"type":"Point","coordinates":[29.557360999910259,-2.4614719997329644]},"properties":{"OBJECTID_1":25,"OBJECTID":2186,"Prov_Kin":"Amajyepfo","Prov_Eng":"Southern Province","District":"Nyamagabe","Sector":"Gasaka","Cell":"Remera","Village":"Muriro","Name":"EP Remera","School_ID":"250305","Highest_Ed":"Primary","Coordinate":"Yes","Latitude":-2.4614720000000001,"Longitude":29.557361}},{"type":"Feature","id":26,"geometry":{"type":"Point","coordinates":[29.401811999724032,-2.3999999996002543]},"properties":{"OBJECTID_1":26,"OBJECTID":2187,"Prov_Kin":"Amajyepfo","Prov_Eng":"Southern Province","District":"Nyamagabe","Sector":"Gatare","Cell":"Gatare","Village":"Rwamakara","Name":"EP Nganzo","School_ID":"250401","Highest_Ed":"Primary","Coordinate":"Yes","Latitude":-2.3999999999999999,"Longitude":29.401812}},{"type":"Feature","id":27,"geometry":{"type":"Point","coordinates":[29.381082999780688,-2.3719999998000958]},"properties":{"OBJECTID_1":27,"OBJECTID":2188,"Prov_Kin":"Amajyepfo","Prov_Eng":"Southern Province","District":"Nyamagabe","Sector":"Gatare","Cell":"Gatare","Village":"Gashasha","Name":"GS Gatare","School_ID":"250405","Highest_Ed":"Secondary A' Level","Coordinate":"Yes","Latitude":-2.3719999999999999,"Longitude":29.381083}},{"type":"Feature","id":28,"geometry":{"type":"Point","coordinates":[29.425655000278084,-2.3949369999425585]},"properties":{"OBJECTID_1":28,"OBJECTID":2189,"Prov_Kin":"Amajyepfo","Prov_Eng":"Southern Province","District":"Nyamagabe","Sector":"Gatare","Cell":"Mukongoro","Village":"Gikungu","Name":"EP Gikungu","School_ID":"250404","Highest_Ed":"Primary","Coordinate":"Yes","Latitude":-2.3949370000000001,"Longitude":29.425654999999999}},{"type":"Feature","id":29,"geometry":{"type":"Point","coordinates":[29.432562999582842,-2.363698000062584]},"properties":{"OBJECTID_1":29,"OBJECTID":2190,"Prov_Kin":"Amajyepfo","Prov_Eng":"Southern Province","District":"Nyamagabe","Sector":"Gatare","Cell":"Ruganda","Village":"Runaba","Name":"EP Gakoma","School_ID":"250402","Highest_Ed":"Primary","Coordinate":"Yes","Latitude":-2.3636979999999999,"Longitude":29.432562999999998}},{"type":"Feature","id":30,"geometry":{"type":"Point","coordinates":[29.425418000140667,-2.3538249998238143]},"properties":{"OBJECTID_1":30,"OBJECTID":2191,"Prov_Kin":"Amajyepfo","Prov_Eng":"Southern Province","District":"Nyamagabe","Sector":"Gatare","Cell":"Shyeru","Village":"Rushyarara","Name":"GS Nyarwungo","School_ID":"250406","Highest_Ed":"Secondary O' Level","Coordinate":"Yes","Latitude":-2.3538250000000001,"Longitude":29.425418000000001}},{"type":"Feature","id":31,"geometry":{"type":"Point","coordinates":[29.523243000364232,-2.3350770004032029]},"properties":{"OBJECTID_1":31,"OBJECTID":2192,"Prov_Kin":"Amajyepfo","Prov_Eng":"Southern Province","District":"Nyamagabe","Sector":"Kaduha","Cell":"Kavumu","Village":"Bamba","Name":"EP Kaduha/B","School_ID":"250501","Highest_Ed":"Primary","Coordinate":"Yes","Latitude":-2.3350770000000001,"Longitude":29.523243000000001}},{"type":"Feature","id":32,"geometry":{"type":"Point","coordinates":[29.528959999604353,-2.330639999936011]},"properties":{"OBJECTID_1":32,"OBJECTID":2193,"Prov_Kin":"Amajyepfo","Prov_Eng":"Southern Province","District":"Nyamagabe","Sector":"Kaduha","Cell":"Kavumu","Village":"Bamba","Name":"ES Kaduha","School_ID":"250506","Highest_Ed":"Secondary A' Level","Coordinate":"Yes","Latitude":-2.3306399999999998,"Longitude":29.528960000000001}},{"type":"Feature","id":33,"geometry":{"type":"Point","coordinates":[29.523305999672175,-2.3350279999422128]},"properties":{"OBJECTID_1":33,"OBJECTID":2194,"Prov_Kin":"Amajyepfo","Prov_Eng":"Southern Province","District":"Nyamagabe","Sector":"Kaduha","Cell":"Kavumu","Village":"Bamba","Name":"GS Kaduha","School_ID":"250507","Highest_Ed":"Secondary A' Level","Coordinate":"Yes","Latitude":-2.3350279999999999,"Longitude":29.523306000000002}},{"type":"Feature","id":34,"geometry":{"type":"Point","coordinates":[29.521256999610898,-2.3361119995690842]},"properties":{"OBJECTID_1":34,"OBJECTID":2195,"Prov_Kin":"Amajyepfo","Prov_Eng":"Southern Province","District":"Nyamagabe","Sector":"Kaduha","Cell":"Kavumu","Village":"Bamba","Name":"GS Kaduha/A","School_ID":"250508","Highest_Ed":"Secondary A' Level","Coordinate":"Yes","Latitude":-2.336112,"Longitude":29.521256999999999}},{"type":"Feature","id":35,"geometry":{"type":"Point","coordinates":[29.558197999837887,-2.3102779998297933]},"properties":{"OBJECTID_1":35,"OBJECTID":2196,"Prov_Kin":"Amajyepfo","Prov_Eng":"Southern Province","District":"Nyamagabe","Sector":"Kaduha","Cell":"Murambi","Village":"Kasemanyana","Name":"EP Mugote","School_ID":"250504","Highest_Ed":"Primary","Coordinate":"Yes","Latitude":-2.3102779999999998,"Longitude":29.558198000000001}},{"type":"Feature","id":36,"geometry":{"type":"Point","coordinates":[29.487472000132755,-2.33872200031999]},"properties":{"OBJECTID_1":36,"OBJECTID":2197,"Prov_Kin":"Amajyepfo","Prov_Eng":"Southern Province","District":"Nyamagabe","Sector":"Kaduha","Cell":"Musenyi","Village":"Burengo","Name":"GS Musenyi","School_ID":"250509","Highest_Ed":"Secondary O' Level","Coordinate":"Yes","Latitude":-2.3387220000000002,"Longitude":29.487472}},{"type":"Feature","id":37,"geometry":{"type":"Point","coordinates":[29.555268999664634,-2.350281000068037]},"properties":{"OBJECTID_1":37,"OBJECTID":2198,"Prov_Kin":"Amajyepfo","Prov_Eng":"Southern Province","District":"Nyamagabe","Sector":"Kaduha","Cell":"Nyabisindu","Village":"Mukongoro","Name":"EP Kirehe/C","School_ID":"250502","Highest_Ed":"Primary","Coordinate":"Yes","Latitude":-2.3502809999999998,"Longitude":29.555268999999999}},{"type":"Feature","id":38,"geometry":{"type":"Point","coordinates":[29.562932999658244,-2.3400579998767626]},"properties":{"OBJECTID_1":38,"OBJECTID":2199,"Prov_Kin":"Amajyepfo","Prov_Eng":"Southern Province","District":"Nyamagabe","Sector":"Kaduha","Cell":"Nyabisindu","Village":"Kirehe","Name":"EP Kirehe/P","School_ID":"250503","Highest_Ed":"Primary","Coordinate":"Yes","Latitude":-2.340058,"Longitude":29.562933000000001}},{"type":"Feature","id":39,"geometry":{"type":"Point","coordinates":[29.491092999842124,-2.3573519996949699]},"properties":{"OBJECTID_1":39,"OBJECTID":2200,"Prov_Kin":"Amajyepfo","Prov_Eng":"Southern Province","District":"Nyamagabe","Sector":"Kaduha","Cell":"Nyamiyaga","Village":"Nkomero","Name":"EP Nkomero","School_ID":"250505","Highest_Ed":"Primary","Coordinate":"Yes","Latitude":-2.3573520000000001,"Longitude":29.491092999999999}},{"type":"Feature","id":40,"geometry":{"type":"Point","coordinates":[29.575410000371278,-2.5012019999722952]},"properties":{"OBJECTID_1":40,"OBJECTID":2201,"Prov_Kin":"Amajyepfo","Prov_Eng":"Southern Province","District":"Nyamagabe","Sector":"Kamegeri","Cell":"Bwama","Village":"Kigarama","Name":"Bwama Primary School","School_ID":"250601","Highest_Ed":"Primary","Coordinate":"Yes","Latitude":-2.5012020000000001,"Longitude":29.575410000000002}},{"type":"Feature","id":41,"geometry":{"type":"Point","coordinates":[29.554322000060324,-2.5105429999594548]},"properties":{"OBJECTID_1":41,"OBJECTID":2202,"Prov_Kin":"Amajyepfo","Prov_Eng":"Southern Province","District":"Nyamagabe","Sector":"Kamegeri","Cell":"Kamegeri","Village":"Kinyovu","Name":"Kamegeri Primary","School_ID":"250605","Highest_Ed":"Primary","Coordinate":"Yes","Latitude":-2.5105430000000002,"Longitude":29.554321999999999}},{"type":"Feature","id":42,"geometry":{"type":"Point","coordinates":[29.58891499992734,-2.5088720002425475]},"properties":{"OBJECTID_1":42,"OBJECTID":2203,"Prov_Kin":"Amajyepfo","Prov_Eng":"Southern Province","District":"Nyamagabe","Sector":"Kamegeri","Cell":"Kizi","Village":"Kinyana","Name":"GS St Joseph Kizi","School_ID":"250604","Highest_Ed":"Secondary A' Level","Coordinate":"Yes","Latitude":-2.5088720000000002,"Longitude":29.588915}},{"type":"Feature","id":43,"geometry":{"type":"Point","coordinates":[29.576833000342731,-2.5285979997977961]},"properties":{"OBJECTID_1":43,"OBJECTID":2204,"Prov_Kin":"Amajyepfo","Prov_Eng":"Southern Province","District":"Nyamagabe","Sector":"Kamegeri","Cell":"Nyarusiza","Village":"Nyarusiza","Name":"GS Rususa","School_ID":"250603","Highest_Ed":"Secondary O' Level","Coordinate":"Yes","Latitude":-2.5285980000000001,"Longitude":29.576833000000001}},{"type":"Feature","id":44,"geometry":{"type":"Point","coordinates":[29.560897000196462,-2.5286120004434451]},"properties":{"OBJECTID_1":44,"OBJECTID":2205,"Prov_Kin":"Amajyepfo","Prov_Eng":"Southern Province","District":"Nyamagabe","Sector":"Kamegeri","Cell":"Rususa","Village":"Baro","Name":"EP Baro","School_ID":"250602","Highest_Ed":"Primary","Coordinate":"Yes","Latitude":-2.5286119999999999,"Longitude":29.560897000000001}},{"type":"Feature","id":45,"geometry":{"type":"Point","coordinates":[29.55339200034058,-2.4348850003424332]},"properties":{"OBJECTID_1":45,"OBJECTID":2206,"Prov_Kin":"Amajyepfo","Prov_Eng":"Southern Province","District":"Nyamagabe","Sector":"Kibirizi","Cell":"Bugarura","Village":"Kasebuturanyi","Name":"Muganza Primary Schoor","School_ID":"250706","Highest_Ed":"Primary","Coordinate":"Yes","Latitude":-2.434885,"Longitude":29.553391999999999}},{"type":"Feature","id":46,"geometry":{"type":"Point","coordinates":[29.574771999728057,-2.4084129999599213]},"properties":{"OBJECTID_1":46,"OBJECTID":2207,"Prov_Kin":"Amajyepfo","Prov_Eng":"Southern Province","District":"Nyamagabe","Sector":"Kibirizi","Cell":"Karambo","Village":"Nyirakiraro","Name":"EP Kiraro C","School_ID":"250701","Highest_Ed":"Primary","Coordinate":"Yes","Latitude":-2.4084129999999999,"Longitude":29.574771999999999}},{"type":"Feature","id":47,"geometry":{"type":"Point","coordinates":[29.475369999625855,-2.4559499995927467]},"properties":{"OBJECTID_1":47,"OBJECTID":2208,"Prov_Kin":"Amajyepfo","Prov_Eng":"Southern Province","District":"Nyamagabe","Sector":"Kibirizi","Cell":"Karambo","Village":"Kavumu","Name":"GS Kiraro P","School_ID":"250702","Highest_Ed":"Secondary A' Level","Coordinate":"Yes","Latitude":-2.4559500000000001,"Longitude":29.475370000000002}},{"type":"Feature","id":48,"geometry":{"type":"Point","coordinates":[29.522990000388234,-2.4634229997715806]},"properties":{"OBJECTID_1":48,"OBJECTID":2209,"Prov_Kin":"Amajyepfo","Prov_Eng":"Southern Province","District":"Nyamagabe","Sector":"Kibirizi","Cell":"Ruhunga","Village":"Ruhurura","Name":"Kibirizi","School_ID":"250705","Highest_Ed":"Primary","Coordinate":"Yes","Latitude":-2.4634230000000001,"Longitude":29.52299}},{"type":"Feature","id":49,"geometry":{"type":"Point","coordinates":[29.497152999611274,-2.4663750001060976]},"properties":{"OBJECTID_1":49,"OBJECTID":2210,"Prov_Kin":"Amajyepfo","Prov_Eng":"Southern Province","District":"Nyamagabe","Sector":"Kibirizi","Cell":"Uwindekezi","Village":"Birembo","Name":"GS Bugarama","School_ID":"250703","Highest_Ed":"Secondary O' Level","Coordinate":"Yes","Latitude":-2.4663750000000002,"Longitude":29.497153000000001}},{"type":"Feature","id":50,"geometry":{"type":"Point","coordinates":[29.557826999816257,-2.3969069999580483]},"properties":{"OBJECTID_1":50,"OBJECTID":2211,"Prov_Kin":"Amajyepfo","Prov_Eng":"Southern Province","District":"Nyamagabe","Sector":"Kibumbwe","Cell":"Bwenda","Village":"Murambi","Name":"Bwenda School","School_ID":"250801","Highest_Ed":"Primary","Coordinate":"Yes","Latitude":-2.3969070000000001,"Longitude":29.557827}},{"type":"Feature","id":51,"geometry":{"type":"Point","coordinates":[29.514873000188857,-2.4198549997084342]},"properties":{"OBJECTID_1":51,"OBJECTID":2212,"Prov_Kin":"Amajyepfo","Prov_Eng":"Southern Province","District":"Nyamagabe","Sector":"Kibumbwe","Cell":"Gakanka","Village":"Nkurubuye","Name":"Gakanka School","School_ID":"250802","Highest_Ed":"Primary","Coordinate":"Yes","Latitude":-2.4198550000000001,"Longitude":29.514873000000001}},{"type":"Feature","id":52,"geometry":{"type":"Point","coordinates":[29.525810000031527,-2.4022279998222871]},"properties":{"OBJECTID_1":52,"OBJECTID":2213,"Prov_Kin":"Amajyepfo","Prov_Eng":"Southern Province","District":"Nyamagabe","Sector":"Kibumbwe","Cell":"Kibibi","Village":"Rwezamenyo","Name":"GS Kibumbwe","School_ID":"250803","Highest_Ed":"Secondary A' Level","Coordinate":"Yes","Latitude":-2.402228,"Longitude":29.52581}},{"type":"Feature","id":53,"geometry":{"type":"Point","coordinates":[29.536704999736003,-2.3763479997603554]},"properties":{"OBJECTID_1":53,"OBJECTID":2214,"Prov_Kin":"Amajyepfo","Prov_Eng":"Southern Province","District":"Nyamagabe","Sector":"Kibumbwe","Cell":"Nyakiza","Village":"Karambo","Name":"Kinyana School","School_ID":"250805","Highest_Ed":"Primary","Coordinate":"Yes","Latitude":-2.3763480000000001,"Longitude":29.536705000000001}},{"type":"Feature","id":54,"geometry":{"type":"Point","coordinates":[29.436997999957782,-2.5522030001682765]},"properties":{"OBJECTID_1":54,"OBJECTID":2215,"Prov_Kin":"Amajyepfo","Prov_Eng":"Southern Province","District":"Nyamagabe","Sector":"Kitabi","Cell":"Kagano","Village":"Kintobo","Name":"EP Cyumushyika","School_ID":"250904","Highest_Ed":"Primary","Coordinate":"Yes","Latitude":-2.552203,"Longitude":29.436997999999999}},{"type":"Feature","id":55,"geometry":{"type":"Point","coordinates":[29.441342999779692,-2.5194479996254131]},"properties":{"OBJECTID_1":55,"OBJECTID":2216,"Prov_Kin":"Amajyepfo","Prov_Eng":"Southern Province","District":"Nyamagabe","Sector":"Kitabi","Cell":"Kagano","Village":"Uwabumenyi","Name":"GS Kitabi","School_ID":"250910","Highest_Ed":"Secondary A' Level","Coordinate":"Yes","Latitude":-2.5194480000000001,"Longitude":29.441343}},{"type":"Feature","id":56,"geometry":{"type":"Point","coordinates":[29.472646999959125,-2.5222280001220838]},"properties":{"OBJECTID_1":56,"OBJECTID":2217,"Prov_Kin":"Amajyepfo","Prov_Eng":"Southern Province","District":"Nyamagabe","Sector":"Kitabi","Cell":"Mujuga","Village":"Gahande","Name":"Gahande","School_ID":"250905","Highest_Ed":"Primary","Coordinate":"Yes","Latitude":-2.5222280000000001,"Longitude":29.472646999999998}},{"type":"Feature","id":57,"geometry":{"type":"Point","coordinates":[29.468503000413193,-2.5361629997225918]},"properties":{"OBJECTID_1":57,"OBJECTID":2218,"Prov_Kin":"Amajyepfo","Prov_Eng":"Southern Province","District":"Nyamagabe","Sector":"Kitabi","Cell":"Mujuga","Village":"Rwufe","Name":"EP Mujuga","School_ID":"250907","Highest_Ed":"Primary","Coordinate":"Yes","Latitude":-2.5361630000000002,"Longitude":29.468502999999998}},{"type":"Feature","id":58,"geometry":{"type":"Point","coordinates":[29.458544999851938,-2.5177979999776881]},"properties":{"OBJECTID_1":58,"OBJECTID":2219,"Prov_Kin":"Amajyepfo","Prov_Eng":"Southern Province","District":"Nyamagabe","Sector":"Kitabi","Cell":"Mukungu","Village":"Gahira","Name":"EP Gashwati","School_ID":"250906","Highest_Ed":"Primary","Coordinate":"Yes","Latitude":-2.517798,"Longitude":29.458545000000001}},{"type":"Feature","id":59,"geometry":{"type":"Point","coordinates":[29.463264999879868,-2.5796299996247285]},"properties":{"OBJECTID_1":59,"OBJECTID":2220,"Prov_Kin":"Amajyepfo","Prov_Eng":"Southern Province","District":"Nyamagabe","Sector":"Kitabi","Cell":"Shaba","Village":"Muyange","Name":"EP Muyange","School_ID":"250908","Highest_Ed":"Primary","Coordinate":"Yes","Latitude":-2.5796299999999999,"Longitude":29.463265}},{"type":"Feature","id":60,"geometry":{"type":"Point","coordinates":[29.472837999773901,-2.5582130003296584]},"properties":{"OBJECTID_1":60,"OBJECTID":2221,"Prov_Kin":"Amajyepfo","Prov_Eng":"Southern Province","District":"Nyamagabe","Sector":"Kitabi","Cell":"Uwingugu","Village":"Uwimisigati","Name":"EP Uwingugu","School_ID":"250909","Highest_Ed":"Primary","Coordinate":"Yes","Latitude":-2.5582129999999998,"Longitude":29.472837999999999}},{"type":"Feature","id":61,"geometry":{"type":"Point","coordinates":[29.460667999728457,-2.5702719997529471]},"properties":{"OBJECTID_1":61,"OBJECTID":2222,"Prov_Kin":"Amajyepfo","Prov_Eng":"Southern Province","District":"Nyamagabe","Sector":"Kitabi","Cell":"Uwingugu","Village":"Gisarenda","Name":"GS Shaba","School_ID":"250911","Highest_Ed":"Secondary O' Level","Coordinate":"Yes","Latitude":-2.5702720000000001,"Longitude":29.460667999999998}},{"type":"Feature","id":62,"geometry":{"type":"Point","coordinates":[29.587511999978858,-2.3948270002658205]},"properties":{"OBJECTID_1":62,"OBJECTID":2223,"Prov_Kin":"Amajyepfo","Prov_Eng":"Southern Province","District":"Nyamagabe","Sector":"Mbazi","Cell":"Maheresho","Village":"Maheresho","Name":"ES Maheresho","School_ID":"251001","Highest_Ed":"Secondary A' Level","Coordinate":"Yes","Latitude":-2.3948269999999998,"Longitude":29.587512}},{"type":"Feature","id":63,"geometry":{"type":"Point","coordinates":[29.564609999651793,-2.3658129995702097]},"properties":{"OBJECTID_1":63,"OBJECTID":2224,"Prov_Kin":"Amajyepfo","Prov_Eng":"Southern Province","District":"Nyamagabe","Sector":"Mbazi","Cell":"Mutiwingoma","Village":"Gatwa","Name":"Mutiwingoma","School_ID":"251006","Highest_Ed":"Secondary O' Level","Coordinate":"Yes","Latitude":-2.3658130000000002,"Longitude":29.564609999999998}},{"type":"Feature","id":64,"geometry":{"type":"Point","coordinates":[29.588142000253185,-2.3941600000839003]},"properties":{"OBJECTID_1":64,"OBJECTID":2225,"Prov_Kin":"Amajyepfo","Prov_Eng":"Southern Province","District":"Nyamagabe","Sector":"Mbazi","Cell":"Ngambi","Village":"Maheresho","Name":"EP Maheresho","School_ID":"251002","Highest_Ed":"Primary","Coordinate":"Yes","Latitude":-2.3941599999999998,"Longitude":29.588142000000001}},{"type":"Feature","id":65,"geometry":{"type":"Point","coordinates":[29.609847000238915,-2.3871650003644049]},"properties":{"OBJECTID_1":65,"OBJECTID":2226,"Prov_Kin":"Amajyepfo","Prov_Eng":"Southern Province","District":"Nyamagabe","Sector":"Mbazi","Cell":"Ngambi","Village":"Gaseke","Name":"ES Ngara","School_ID":"251003","Highest_Ed":"Secondary A' Level","Coordinate":"Yes","Latitude":-2.387165,"Longitude":29.609846999999998}},{"type":"Feature","id":66,"geometry":{"type":"Point","coordinates":[29.598143000099412,-2.3682250001835428]},"properties":{"OBJECTID_1":66,"OBJECTID":2227,"Prov_Kin":"Amajyepfo","Prov_Eng":"Southern Province","District":"Nyamagabe","Sector":"Mbazi","Cell":"Ngara","Village":"Gasharu","Name":"GS Mbazi","School_ID":"251004","Highest_Ed":"Secondary A' Level","Coordinate":"Yes","Latitude":-2.3682249999999998,"Longitude":29.598143}},{"type":"Feature","id":67,"geometry":{"type":"Point","coordinates":[29.506239999576394,-2.3157470002238369]},"properties":{"OBJECTID_1":67,"OBJECTID":2228,"Prov_Kin":"Amajyepfo","Prov_Eng":"Southern Province","District":"Nyamagabe","Sector":"Mugano","Cell":"Gitondorero","Village":"Gituntu","Name":"Mugano","School_ID":"251105","Highest_Ed":"Primary","Coordinate":"Yes","Latitude":-2.315747,"Longitude":29.506239999999998}},{"type":"Feature","id":68,"geometry":{"type":"Point","coordinates":[29.523232999903087,-2.2896330001627803]},"properties":{"OBJECTID_1":68,"OBJECTID":2229,"Prov_Kin":"Amajyepfo","Prov_Eng":"Southern Province","District":"Nyamagabe","Sector":"Mugano","Cell":"Gitondorero","Village":"Maso","Name":"Maso","School_ID":"251103","Highest_Ed":"Secondary A' Level","Coordinate":"Yes","Latitude":-2.2896329999999998,"Longitude":29.523233000000001}},{"type":"Feature","id":69,"geometry":{"type":"Point","coordinates":[29.526936999842746,-2.2414349997254135]},"properties":{"OBJECTID_1":69,"OBJECTID":2230,"Prov_Kin":"Amajyepfo","Prov_Eng":"Southern Province","District":"Nyamagabe","Sector":"Mugano","Cell":"Gitwa","Village":"Kabuhoro","Name":"Mwumba","School_ID":"251106","Highest_Ed":"Primary","Coordinate":"Yes","Latitude":-2.2414350000000001,"Longitude":29.526937}},{"type":"Feature","id":70,"geometry":{"type":"Point","coordinates":[29.524005000430463,-2.2849469999040934]},"properties":{"OBJECTID_1":70,"OBJECTID":2231,"Prov_Kin":"Amajyepfo","Prov_Eng":"Southern Province","District":"Nyamagabe","Sector":"Mugano","Cell":"Ruhinga","Village":"Karambi","Name":"Karambi","School_ID":"251102","Highest_Ed":"Primary","Coordinate":"Yes","Latitude":-2.2849469999999998,"Longitude":29.524004999999999}},{"type":"Feature","id":71,"geometry":{"type":"Point","coordinates":[29.476692000335618,-2.2743430001293063]},"properties":{"OBJECTID_1":71,"OBJECTID":2232,"Prov_Kin":"Amajyepfo","Prov_Eng":"Southern Province","District":"Nyamagabe","Sector":"Mugano","Cell":"Sovu","Village":"Nziranziza","Name":"Mubuga","School_ID":"251104","Highest_Ed":"Primary","Coordinate":"Yes","Latitude":-2.274343,"Longitude":29.476692}},{"type":"Feature","id":72,"geometry":{"type":"Point","coordinates":[29.503603000278304,-2.2590180002804345]},"properties":{"OBJECTID_1":72,"OBJECTID":2233,"Prov_Kin":"Amajyepfo","Prov_Eng":"Southern Province","District":"Nyamagabe","Sector":"Mugano","Cell":"Sovu","Village":"Rugarama I","Name":"Sovu","School_ID":"251108","Highest_Ed":"Primary","Coordinate":"Yes","Latitude":-2.2590180000000002,"Longitude":29.503602999999998}},{"type":"Feature","id":73,"geometry":{"type":"Point","coordinates":[29.514352000444489,-2.2532050002105279]},"properties":{"OBJECTID_1":73,"OBJECTID":2234,"Prov_Kin":"Amajyepfo","Prov_Eng":"Southern Province","District":"Nyamagabe","Sector":"Mugano","Cell":"Suti","Village":"Turyango","Name":"GS Turyango","School_ID":"251101","Highest_Ed":"Secondary O' Level","Coordinate":"Yes","Latitude":-2.2532049999999999,"Longitude":29.514351999999999}},{"type":"Feature","id":74,"geometry":{"type":"Point","coordinates":[29.471027999942294,-2.2981020004069705]},"properties":{"OBJECTID_1":74,"OBJECTID":2235,"Prov_Kin":"Amajyepfo","Prov_Eng":"Southern Province","District":"Nyamagabe","Sector":"Mugano","Cell":"Yonde","Village":"Nyarusazi","Name":"Nyarusazi","School_ID":"251107","Highest_Ed":"Primary","Coordinate":"Yes","Latitude":-2.2981020000000001,"Longitude":29.471028}},{"type":"Feature","id":75,"geometry":{"type":"Point","coordinates":[29.553275000341046,-2.248095000184037]},"properties":{"OBJECTID_1":75,"OBJECTID":2236,"Prov_Kin":"Amajyepfo","Prov_Eng":"Southern Province","District":"Nyamagabe","Sector":"Musange","Cell":"Gasave","Village":"Murambi","Name":"GS Gasave","School_ID":"251203","Highest_Ed":"Secondary O' Level","Coordinate":"yes","Latitude":-2.2480950000000002,"Longitude":29.553274999999999}},{"type":"Feature","id":76,"geometry":{"type":"Point","coordinates":[29.580887000234952,-2.3081169999995268]},"properties":{"OBJECTID_1":76,"OBJECTID":2237,"Prov_Kin":"Amajyepfo","Prov_Eng":"Southern Province","District":"Nyamagabe","Sector":"Musange","Cell":"Jenda","Village":"Nyakibungo","Name":"EP Jenda","School_ID":"251201","Highest_Ed":"Primary","Coordinate":"yes","Latitude":-2.3081170000000002,"Longitude":29.580887000000001}},{"type":"Feature","id":77,"geometry":{"type":"Point","coordinates":[29.569019999773218,-2.2863180001755268]},"properties":{"OBJECTID_1":77,"OBJECTID":2238,"Prov_Kin":"Amajyepfo","Prov_Eng":"Southern Province","District":"Nyamagabe","Sector":"Musange","Cell":"Jenda","Village":"Cyabagomba","Name":"Musange","School_ID":"251205","Highest_Ed":"Secondary O' Level","Coordinate":"yes","Latitude":-2.2863180000000001,"Longitude":29.569019999999998}},{"type":"Feature","id":78,"geometry":{"type":"Point","coordinates":[29.571370000225386,-2.2862149999222652]},"properties":{"OBJECTID_1":78,"OBJECTID":2239,"Prov_Kin":"Amajyepfo","Prov_Eng":"Southern Province","District":"Nyamagabe","Sector":"Musange","Cell":"Jenda","Village":"Kabakannyi","Name":"Esecomu","School_ID":"251202","Highest_Ed":"Secondary A' Level","Coordinate":"yes","Latitude":-2.2862149999999999,"Longitude":29.571370000000002}},{"type":"Feature","id":79,"geometry":{"type":"Point","coordinates":[29.562354999983313,-2.2592169995648419]},"properties":{"OBJECTID_1":79,"OBJECTID":2240,"Prov_Kin":"Amajyepfo","Prov_Eng":"Southern Province","District":"Nyamagabe","Sector":"Musange","Cell":"Masagara","Village":"Cyabasana","Name":"Masagara Nusery School","School_ID":"251204","Highest_Ed":"Primary","Coordinate":"yes","Latitude":-2.259217,"Longitude":29.562355}},{"type":"Feature","id":80,"geometry":{"type":"Point","coordinates":[29.55913800001872,-2.2662330002527256]},"properties":{"OBJECTID_1":80,"OBJECTID":2241,"Prov_Kin":"Amajyepfo","Prov_Eng":"Southern Province","District":"Nyamagabe","Sector":"Musange","Cell":"Masagara","Village":"Mutakara","Name":"Mutakara","School_ID":"251207","Highest_Ed":"Secondary A' Level","Coordinate":"yes","Latitude":-2.2662330000000002,"Longitude":29.559138000000001}},{"type":"Feature","id":81,"geometry":{"type":"Point","coordinates":[29.602696999666875,-2.2949069996582807]},"properties":{"OBJECTID_1":81,"OBJECTID":2242,"Prov_Kin":"Amajyepfo","Prov_Eng":"Southern Province","District":"Nyamagabe","Sector":"Musange","Cell":"Masangano","Village":"Gasagara","Name":"Nkore PS","School_ID":"251208","Highest_Ed":"Primary","Coordinate":"yes","Latitude":-2.2949069999999998,"Longitude":29.602696999999999}},{"type":"Feature","id":82,"geometry":{"type":"Point","coordinates":[29.586586999590395,-2.2781320003914516]},"properties":{"OBJECTID_1":82,"OBJECTID":2243,"Prov_Kin":"Amajyepfo","Prov_Eng":"Southern Province","District":"Nyamagabe","Sector":"Musange","Cell":"Masizi","Village":"Munini","Name":"Nyaruzi PS","School_ID":"251210","Highest_Ed":"Primary","Coordinate":"yes","Latitude":-2.2781319999999998,"Longitude":29.586587000000002}},{"type":"Feature","id":83,"geometry":{"type":"Point","coordinates":[29.573889000377108,-2.278444000390266]},"properties":{"OBJECTID_1":83,"OBJECTID":2244,"Prov_Kin":"Amajyepfo","Prov_Eng":"Southern Province","District":"Nyamagabe","Sector":"Musange","Cell":"Masizi","Village":"Karama","Name":"GS Musange","School_ID":"251212","Highest_Ed":"Secondary O' Level","Coordinate":"yes","Latitude":-2.2784439999999999,"Longitude":29.573889000000001}},{"type":"Feature","id":84,"geometry":{"type":"Point","coordinates":[29.538215000122193,-2.2214499999175246]},"properties":{"OBJECTID_1":84,"OBJECTID":2245,"Prov_Kin":"Amajyepfo","Prov_Eng":"Southern Province","District":"Nyamagabe","Sector":"Musange","Cell":"Nyagisozi","Village":"Uwabashi","Name":"Nyagisozi Nursury","School_ID":"251209","Highest_Ed":"Primary","Coordinate":"yes","Latitude":-2.2214499999999999,"Longitude":29.538215000000001}},{"type":"Feature","id":85,"geometry":{"type":"Point","coordinates":[29.452221999645644,-2.4145279995674969]},"properties":{"OBJECTID_1":85,"OBJECTID":2246,"Prov_Kin":"Amajyepfo","Prov_Eng":"Southern Province","District":"Nyamagabe","Sector":"Musebeya","Cell":"Gatovu","Village":"Bisereganya","Name":"TSS Musebeya","School_ID":"251306","Highest_Ed":"Secondary A' Level","Coordinate":"yes","Latitude":-2.4145279999999998,"Longitude":29.452221999999999}},{"type":"Feature","id":86,"geometry":{"type":"Point","coordinates":[29.452221999645644,-2.4145279995674969]},"properties":{"OBJECTID_1":86,"OBJECTID":2247,"Prov_Kin":"Amajyepfo","Prov_Eng":"Southern Province","District":"Nyamagabe","Sector":"Musebeya","Cell":"Gatovu","Village":"Bisereganya","Name":"VTC Musebeya","School_ID":"251307","Highest_Ed":"VTC","Coordinate":"yes","Latitude":-2.4145279999999998,"Longitude":29.452221999999999}},{"type":"Feature","id":87,"geometry":{"type":"Point","coordinates":[29.457413999856271,-2.3702439997607598]},"properties":{"OBJECTID_1":87,"OBJECTID":2248,"Prov_Kin":"Amajyepfo","Prov_Eng":"Southern Province","District":"Nyamagabe","Sector":"Musebeya","Cell":"Nyarurambi","Village":"Nyarurambi","Name":"EP Nyarurambi","School_ID":"251303","Highest_Ed":"Primary","Coordinate":"yes","Latitude":-2.370244,"Longitude":29.457414}},{"type":"Feature","id":88,"geometry":{"type":"Point","coordinates":[29.445966999877214,-2.3683780000446291]},"properties":{"OBJECTID_1":88,"OBJECTID":2249,"Prov_Kin":"Amajyepfo","Prov_Eng":"Southern Province","District":"Nyamagabe","Sector":"Musebeya","Cell":"Rugano","Village":"Rugano","Name":"EP Rugano","School_ID":"251301","Highest_Ed":"Primary","Coordinate":"yes","Latitude":-2.3683779999999999,"Longitude":29.445967}},{"type":"Feature","id":89,"geometry":{"type":"Point","coordinates":[29.467053000095916,-2.4204870000749565]},"properties":{"OBJECTID_1":89,"OBJECTID":2250,"Prov_Kin":"Amajyepfo","Prov_Eng":"Southern Province","District":"Nyamagabe","Sector":"Musebeya","Cell":"Runege","Village":"Gakereko","Name":"EP Runege","School_ID":"251302","Highest_Ed":"Primary","Coordinate":"yes","Latitude":-2.4204870000000001,"Longitude":29.467053}},{"type":"Feature","id":90,"geometry":{"type":"Point","coordinates":[29.44839300023682,-2.395298000402363]},"properties":{"OBJECTID_1":90,"OBJECTID":2251,"Prov_Kin":"Amajyepfo","Prov_Eng":"Southern Province","District":"Nyamagabe","Sector":"Musebeya","Cell":"Rusekera","Village":"Rebero","Name":"GS Rusekera","School_ID":"251304","Highest_Ed":"Secondary O' Level","Coordinate":"yes","Latitude":-2.3952979999999999,"Longitude":29.448392999999999}},{"type":"Feature","id":91,"geometry":{"type":"Point","coordinates":[29.481356999625859,-2.4088850001426181]},"properties":{"OBJECTID_1":91,"OBJECTID":2252,"Prov_Kin":"Amajyepfo","Prov_Eng":"Southern Province","District":"Nyamagabe","Sector":"Musebeya","Cell":"Sekera","Village":"Rugazi","Name":"GS Sekera","School_ID":"251305","Highest_Ed":"Secondary O' Level","Coordinate":"yes","Latitude":-2.4088850000000002,"Longitude":29.481356999999999}},{"type":"Feature","id":92,"geometry":{"type":"Point","coordinates":[29.431888999977446,-2.3048890004269538]},"properties":{"OBJECTID_1":92,"OBJECTID":2253,"Prov_Kin":"Amajyepfo","Prov_Eng":"Southern Province","District":"Nyamagabe","Sector":"Mushubi","Cell":"Buteteri","Village":"Remera","Name":"EP Remera","School_ID":"251405","Highest_Ed":"Primary","Coordinate":"Yes","Latitude":-2.3048890000000002,"Longitude":29.431889000000002}},{"type":"Feature","id":93,"geometry":{"type":"Point","coordinates":[29.447222000195211,-2.2937880002160114]},"properties":{"OBJECTID_1":93,"OBJECTID":2254,"Prov_Kin":"Amajyepfo","Prov_Eng":"Southern Province","District":"Nyamagabe","Sector":"Mushubi","Cell":"Buteteri","Village":"Kizanganya","Name":"Buteteri","School_ID":"251401","Highest_Ed":"Secondary O' Level","Coordinate":"Yes","Latitude":-2.2937880000000002,"Longitude":29.447222}},{"type":"Feature","id":94,"geometry":{"type":"Point","coordinates":[29.453604999571098,-2.310821999735424]},"properties":{"OBJECTID_1":94,"OBJECTID":2255,"Prov_Kin":"Amajyepfo","Prov_Eng":"Southern Province","District":"Nyamagabe","Sector":"Mushubi","Cell":"Cyobe","Village":"Nyakabingo","Name":"EP Gasenyi","School_ID":"251402","Highest_Ed":"Primary","Coordinate":"Yes","Latitude":-2.3108219999999999,"Longitude":29.453605}},{"type":"Feature","id":95,"geometry":{"type":"Point","coordinates":[29.462974999996277,-2.3334520001096735]},"properties":{"OBJECTID_1":95,"OBJECTID":2256,"Prov_Kin":"Amajyepfo","Prov_Eng":"Southern Province","District":"Nyamagabe","Sector":"Mushubi","Cell":"Cyobe","Village":"Nyagisumo","Name":"EP Nyagisumo","School_ID":"251404","Highest_Ed":"Primary","Coordinate":"Yes","Latitude":-2.3334519999999999,"Longitude":29.462975}},{"type":"Feature","id":96,"geometry":{"type":"Point","coordinates":[29.443839999816191,-2.335067999988155]},"properties":{"OBJECTID_1":96,"OBJECTID":2257,"Prov_Kin":"Amajyepfo","Prov_Eng":"Southern Province","District":"Nyamagabe","Sector":"Mushubi","Cell":"Gashwati","Village":"Gashwati","Name":"EP Gashwati","School_ID":"251403","Highest_Ed":"Primary","Coordinate":"Yes","Latitude":-2.3350680000000001,"Longitude":29.443840000000002}},{"type":"Feature","id":97,"geometry":{"type":"Point","coordinates":[29.441838000123653,-2.3477769997087421]},"properties":{"OBJECTID_1":97,"OBJECTID":2258,"Prov_Kin":"Amajyepfo","Prov_Eng":"Southern Province","District":"Nyamagabe","Sector":"Mushubi","Cell":"Gashwati","Village":"Mushubi","Name":"ES Mushubi","School_ID":"251406","Highest_Ed":"Secondary A' Level","Coordinate":"Yes","Latitude":-2.3477769999999998,"Longitude":29.441838000000001}},{"type":"Feature","id":98,"geometry":{"type":"Point","coordinates":[29.448671999613168,-2.3488149999122925]},"properties":{"OBJECTID_1":98,"OBJECTID":2259,"Prov_Kin":"Amajyepfo","Prov_Eng":"Southern Province","District":"Nyamagabe","Sector":"Mushubi","Cell":"Gashwati","Village":"Mushubi","Name":"GS Mushubi","School_ID":"251407","Highest_Ed":"Secondary A' Level","Coordinate":"Yes","Latitude":-2.3488150000000001,"Longitude":29.448671999999998}},{"type":"Feature","id":99,"geometry":{"type":"Point","coordinates":[29.426802000112275,-2.332092000345483]},"properties":{"OBJECTID_1":99,"OBJECTID":2260,"Prov_Kin":"Amajyepfo","Prov_Eng":"Southern Province","District":"Nyamagabe","Sector":"Nkomane","Cell":"Bitandara","Village":"Buhanzi","Name":"EP Buhanzi","School_ID":"251503","Highest_Ed":"Primary","Coordinate":"Yes","Latitude":-2.3320919999999998,"Longitude":29.426801999999999}},{"type":"Feature","id":100,"geometry":{"type":"Point","coordinates":[29.414382000229182,-2.3174969999865311]},"properties":{"OBJECTID_1":100,"OBJECTID":2261,"Prov_Kin":"Amajyepfo","Prov_Eng":"Southern Province","District":"Nyamagabe","Sector":"Nkomane","Cell":"Bitandara","Village":"Rugeyo","Name":"Bitandara","School_ID":"251501","Highest_Ed":"Secondary A' Level","Coordinate":"Yes","Latitude":-2.3174969999999999,"Longitude":29.414382}},{"type":"Feature","id":101,"geometry":{"type":"Point","coordinates":[29.42763199971705,-2.2857219996704998]},"properties":{"OBJECTID_1":101,"OBJECTID":2262,"Prov_Kin":"Amajyepfo","Prov_Eng":"Southern Province","District":"Nyamagabe","Sector":"Nkomane","Cell":"Musaraba","Village":"Kimbogo","Name":"EP Musaraba","School_ID":"251504","Highest_Ed":"Primary","Coordinate":"Yes","Latitude":-2.2857219999999998,"Longitude":29.427631999999999}},{"type":"Feature","id":102,"geometry":{"type":"Point","coordinates":[29.401477999610051,-2.3471379999186865]},"properties":{"OBJECTID_1":102,"OBJECTID":2263,"Prov_Kin":"Amajyepfo","Prov_Eng":"Southern Province","District":"Nyamagabe","Sector":"Nkomane","Cell":"Mutengeri","Village":"Mutengeri","Name":"Mutengeri","School_ID":"251505","Highest_Ed":"Secondary A' Level","Coordinate":"Yes","Latitude":-2.3471380000000002,"Longitude":29.401478000000001}},{"type":"Feature","id":103,"geometry":{"type":"Point","coordinates":[29.390690000343284,-2.2943740002598361]},"properties":{"OBJECTID_1":103,"OBJECTID":2264,"Prov_Kin":"Amajyepfo","Prov_Eng":"Southern Province","District":"Nyamagabe","Sector":"Nkomane","Cell":"Nyarwungo","Village":"Bisharara","Name":"EP Bisharara","School_ID":"251502","Highest_Ed":"Primary","Coordinate":"Yes","Latitude":-2.2943739999999999,"Longitude":29.390689999999999}},{"type":"Feature","id":104,"geometry":{"type":"Point","coordinates":[29.414990000388286,-2.3305270001209237]},"properties":{"OBJECTID_1":104,"OBJECTID":2265,"Prov_Kin":"Amajyepfo","Prov_Eng":"Southern Province","District":"Nyamagabe","Sector":"Nkomane","Cell":"Twiya","Village":"Twiya","Name":"Twiya","School_ID":"251506","Highest_Ed":"Primary","Coordinate":"Yes","Latitude":-2.330527,"Longitude":29.41499}},{"type":"Feature","id":105,"geometry":{"type":"Point","coordinates":[29.519360000263873,-2.5246680002279618]},"properties":{"OBJECTID_1":105,"OBJECTID":2266,"Prov_Kin":"Amajyepfo","Prov_Eng":"Southern Province","District":"Nyamagabe","Sector":"Tare","Cell":"Buhoro","Village":"Gisanze","Name":"Gisanze PS","School_ID":"251603","Highest_Ed":"Primary","Coordinate":"Yes","Latitude":-2.5246680000000001,"Longitude":29.519359999999999}},{"type":"Feature","id":106,"geometry":{"type":"Point","coordinates":[29.542980000426724,-2.5242869997451862]},"properties":{"OBJECTID_1":106,"OBJECTID":2267,"Prov_Kin":"Amajyepfo","Prov_Eng":"Southern Province","District":"Nyamagabe","Sector":"Tare","Cell":"Buhoro","Village":"Kirwa","Name":"Kirwa School","School_ID":"251606","Highest_Ed":"Primary","Coordinate":"Yes","Latitude":-2.5242870000000002,"Longitude":29.54298}},{"type":"Feature","id":107,"geometry":{"type":"Point","coordinates":[29.496077000353353,-2.5186099996516873]},"properties":{"OBJECTID_1":107,"OBJECTID":2268,"Prov_Kin":"Amajyepfo","Prov_Eng":"Southern Province","District":"Nyamagabe","Sector":"Tare","Cell":"Buhoro","Village":"Kirwa","Name":"Gatovu School","School_ID":"251602","Highest_Ed":"Secondary O' Level","Coordinate":"Yes","Latitude":-2.5186099999999998,"Longitude":29.496077}},{"type":"Feature","id":108,"geometry":{"type":"Point","coordinates":[29.490558000351484,-2.5063469998141272]},"properties":{"OBJECTID_1":108,"OBJECTID":2269,"Prov_Kin":"Amajyepfo","Prov_Eng":"Southern Province","District":"Nyamagabe","Sector":"Tare","Cell":"Gasarenda","Village":"Muse","Name":"Muse S","School_ID":"251609","Highest_Ed":"Primary","Coordinate":"Yes","Latitude":-2.5063469999999999,"Longitude":29.490558}},{"type":"Feature","id":109,"geometry":{"type":"Point","coordinates":[29.482054000291953,-2.5148580001965115]},"properties":{"OBJECTID_1":109,"OBJECTID":2270,"Prov_Kin":"Amajyepfo","Prov_Eng":"Southern Province","District":"Nyamagabe","Sector":"Tare","Cell":"Gasarenda","Village":"Kagarama","Name":"ES Mudasomwa","School_ID":"251601","Highest_Ed":"Secondary A' Level","Coordinate":"Yes","Latitude":-2.5148579999999998,"Longitude":29.482054000000002}},{"type":"Feature","id":110,"geometry":{"type":"Point","coordinates":[29.477642000078276,-2.5026680001280397]},"properties":{"OBJECTID_1":110,"OBJECTID":2271,"Prov_Kin":"Amajyepfo","Prov_Eng":"Southern Province","District":"Nyamagabe","Sector":"Tare","Cell":"Gasarenda","Village":"Uwinkomo","Name":"Uwinkomo School","School_ID":"251610","Highest_Ed":"Secondary A' Level","Coordinate":"Yes","Latitude":-2.5026679999999999,"Longitude":29.477641999999999}},{"type":"Feature","id":111,"geometry":{"type":"Point","coordinates":[29.483212999780164,-2.5426969997666902]},"properties":{"OBJECTID_1":111,"OBJECTID":2272,"Prov_Kin":"Amajyepfo","Prov_Eng":"Southern Province","District":"Nyamagabe","Sector":"Tare","Cell":"Nkumbure","Village":"Muhumo","Name":"GS Nkumbure","School_ID":"251605","Highest_Ed":"Secondary A' Level","Coordinate":"Yes","Latitude":-2.542697,"Longitude":29.483212999999999}},{"type":"Feature","id":112,"geometry":{"type":"Point","coordinates":[29.511150000272323,-2.5019680002229734]},"properties":{"OBJECTID_1":112,"OBJECTID":2273,"Prov_Kin":"Amajyepfo","Prov_Eng":"Southern Province","District":"Nyamagabe","Sector":"Tare","Cell":"Nyamigina","Village":"Ngororero","Name":"GS Ngororero","School_ID":"251604","Highest_Ed":"Secondary O' Level","Coordinate":"Yes","Latitude":-2.5019680000000002,"Longitude":29.511150000000001}},{"type":"Feature","id":113,"geometry":{"type":"Point","coordinates":[29.466505000005782,-2.4730250001036325]},"properties":{"OBJECTID_1":113,"OBJECTID":2274,"Prov_Kin":"Amajyepfo","Prov_Eng":"Southern Province","District":"Nyamagabe","Sector":"Uwinkingi","Cell":"Gahira","Village":"Rugeyo","Name":"Rugeyo PS","School_ID":"251707","Highest_Ed":"Primary","Coordinate":"Yes","Latitude":-2.4730249999999998,"Longitude":29.466505000000002}},{"type":"Feature","id":114,"geometry":{"type":"Point","coordinates":[29.474777000158497,-2.4566769998436371]},"properties":{"OBJECTID_1":114,"OBJECTID":2275,"Prov_Kin":"Amajyepfo","Prov_Eng":"Southern Province","District":"Nyamagabe","Sector":"Uwinkingi","Cell":"Gahira","Village":"Gititi","Name":"Winkingi PS","School_ID":"251709","Highest_Ed":"Primary","Coordinate":"Yes","Latitude":-2.456677,"Longitude":29.474777}},{"type":"Feature","id":115,"geometry":{"type":"Point","coordinates":[29.446221999945408,-2.4766530001357978]},"properties":{"OBJECTID_1":115,"OBJECTID":2276,"Prov_Kin":"Amajyepfo","Prov_Eng":"Southern Province","District":"Nyamagabe","Sector":"Uwinkingi","Cell":"Kibyagira","Village":"Kagano","Name":"Kagano PS","School_ID":"251702","Highest_Ed":"Primary","Coordinate":"Yes","Latitude":-2.4766530000000002,"Longitude":29.446221999999999}},{"type":"Feature","id":116,"geometry":{"type":"Point","coordinates":[29.449177000418274,-2.4721829999454599]},"properties":{"OBJECTID_1":116,"OBJECTID":2277,"Prov_Kin":"Amajyepfo","Prov_Eng":"Southern Province","District":"Nyamagabe","Sector":"Uwinkingi","Cell":"Kibyagira","Village":"Sekera","Name":"Kibyagira","School_ID":"251703","Highest_Ed":"Secondary A' Level","Coordinate":"Yes","Latitude":-2.4721829999999998,"Longitude":29.449176999999999}},{"type":"Feature","id":117,"geometry":{"type":"Point","coordinates":[29.45717300043367,-2.4972549996184625]},"properties":{"OBJECTID_1":117,"OBJECTID":2278,"Prov_Kin":"Amajyepfo","Prov_Eng":"Southern Province","District":"Nyamagabe","Sector":"Uwinkingi","Cell":"Mudasomwa","Village":"Uwanjyogoro","Name":"Nsinduka","School_ID":"251706","Highest_Ed":"Primary","Coordinate":"Yes","Latitude":-2.497255,"Longitude":29.457173000000001}},{"type":"Feature","id":118,"geometry":{"type":"Point","coordinates":[29.502378000444423,-2.4800900003531865]},"properties":{"OBJECTID_1":118,"OBJECTID":2279,"Prov_Kin":"Amajyepfo","Prov_Eng":"Southern Province","District":"Nyamagabe","Sector":"Uwinkingi","Cell":"Munyege","Village":"Gahango","Name":"Gahango PS","School_ID":"251701","Highest_Ed":"Primary","Coordinate":"Yes","Latitude":-2.4800900000000001,"Longitude":29.502378}},{"type":"Feature","id":119,"geometry":{"type":"Point","coordinates":[29.479813000369745,-2.4945319999517892]},"properties":{"OBJECTID_1":119,"OBJECTID":2280,"Prov_Kin":"Amajyepfo","Prov_Eng":"Southern Province","District":"Nyamagabe","Sector":"Uwinkingi","Cell":"Munyege","Village":"Munyege","Name":"Mbuga PS","School_ID":"251704","Highest_Ed":"Primary","Coordinate":"Yes","Latitude":-2.494532,"Longitude":29.479813}},{"type":"Feature","id":120,"geometry":{"type":"Point","coordinates":[29.480945000411509,-2.4930879999112108]},"properties":{"OBJECTID_1":120,"OBJECTID":2281,"Prov_Kin":"Amajyepfo","Prov_Eng":"Southern Province","District":"Nyamagabe","Sector":"Uwinkingi","Cell":"Munyege","Village":"Munyege","Name":"TTC Mbuga","School_ID":"251708","Highest_Ed":"Secondary A' Level","Coordinate":"Yes","Latitude":-2.4930880000000002,"Longitude":29.480944999999998}},{"type":"Feature","id":121,"geometry":{"type":"Point","coordinates":[29.434707000427807,-2.5041849999377632]},"properties":{"OBJECTID_1":121,"OBJECTID":2282,"Prov_Kin":"Amajyepfo","Prov_Eng":"Southern Province","District":"Nyamagabe","Sector":"Uwinkingi","Cell":"Rugogwe","Village":"Nyamugali","Name":"Munini","School_ID":"251705","Highest_Ed":"Primary","Coordinate":"Yes","Latitude":-2.5041850000000001,"Longitude":29.434707}}]
}